$GNRMC,022728.00,A,3011.1654865,N,12009.3876798,E,0.02,,210525,,,A,V*22
$GNVTG,,,,,0.02,N,0.04,K,A*22
$GNGGA,022728.00,3011.1654865,N,12009.3876798,E,1,41,0.5,96.84,M,7.05,M,,*76
$GNGSA,A,3,01,03,06,11,14,17,19,22,30,,,,0.8,0.5,0.7,1*37
$GNGSA,A,3,02,10,11,12,16,24,25,36,,,,,0.8,0.5,0.7,3*3A
$GNGSA,A,3,01,02,03,04,05,06,07,08,09,10,13,16,0.8,0.5,0.7,4*3B
$GNGSA,A,3,19,20,26,29,30,32,35,36,38,39,40,45,0.8,0.5,0.7,4*3E
$GNGSA,A,3,,,,,,,,,,,,,0.8,0.5,0.7,5*3F
$GPGSV,3,1,11,01,27,043,43,02,04,055,31,03,46,066,45,06,37,254,44,1*67
$GPGSV,3,2,11,08,,,30,11,06,241,36,14,77,213,47,17,58,352,46,1*51
$GPGSV,3,3,11,19,39,314,44,22,71,299,47,30,12,207,34,1*55
$GAGSV,3,1,09,02,21,319,38,10,48,030,44,11,71,350,42,12,25,041,36,7*75
$GAGSV,3,2,09,16,76,171,46,24,49,150,42,25,73,300,45,31,,,29,7*49
$GAGSV,3,3,09,36,42,249,40,7*42
$BDGSV,6,1,24,01,45,138,46,02,35,232,40,03,52,198,44,04,35,121,41,1*7E
$BDGSV,6,2,24,05,15,252,36,06,18,206,38,07,69,338,46,08,36,182,35,1*74
$BDGSV,6,3,24,09,25,221,37,10,58,319,45,13,23,192,34,16,15,200,37,1*70
$BDGSV,6,4,24,19,15,162,42,20,31,113,47,26,21,309,41,29,59,005,48,1*78
$BDGSV,6,5,24,30,24,065,44,32,16,055,41,35,28,285,41,36,27,185,38,1*74
$BDGSV,6,6,24,38,46,179,43,39,08,193,35,40,64,014,48,45,49,245,49,1*70
$GQGSV,1,1,04,02,,,46,03,,,46,04,,,40,07,,,39,1*6D
$GNGLL,3011.1654865,N,12009.3876798,E,022728.00,A,A*72
$GNGST,022728.00,9.1,,,,2.1,1.9,2.0*6B
$GNZDA,022728.00,21,05,2025,00,00*76
$GNDHV,022728.00,0.02,0.002,-0.002,-0.015,0.01,,,,,M*38
$GPTXT,01,01,02,MS=7,18,2625A7EF,33,26,B60C93FF,33,0,00000000*1F
$GPTXT,01,01,01,ANTENNA OPEN*25
$GNRMC,022729.00,A,3011.1654762,N,12009.3876905,E,0.03,,210525,,,A,V*20
$GNVTG,,,,,0.03,N,0.06,K,A*21
$GNGGA,022729.00,3011.1654762,N,12009.3876905,E,1,41,0.5,96.85,M,7.05,M,,*74
$GNGSA,A,3,01,03,06,11,14,17,19,22,30,,,,0.8,0.5,0.7,1*37
$GNGSA,A,3,02,10,11,12,16,24,25,36,,,,,0.8,0.5,0.7,3*3A
$GNGSA,A,3,01,02,03,04,05,06,07,08,09,10,13,16,0.8,0.5,0.7,4*3B
$GNGSA,A,3,19,20,26,29,30,32,35,36,38,39,40,45,0.8,0.5,0.7,4*3E
$GNGSA,A,3,,,,,,,,,,,,,0.8,0.5,0.7,5*3F
$GPGSV,3,1,11,01,27,043,43,02,04,055,31,03,46,066,45,06,37,254,44,1*67
$GPGSV,3,2,11,08,,,30,11,06,241,35,14,77,213,47,17,58,352,46,1*52
$GPGSV,3,3,11,19,39,314,44,22,71,299,47,30,12,207,34,1*55
$GAGSV,3,1,09,02,21,319,38,10,48,030,44,11,71,350,42,12,25,041,36,7*75
$GAGSV,3,2,09,16,76,171,46,24,49,150,42,25,73,300,45,31,,,29,7*49
$GAGSV,3,3,09,36,42,249,40,7*42
$BDGSV,6,1,24,01,45,138,46,02,35,232,40,03,52,198,44,04,35,121,41,1*7E
$BDGSV,6,2,24,05,15,252,36,06,18,206,38,07,69,338,47,08,36,182,35,1*75
$BDGSV,6,3,24,09,25,221,37,10,58,319,45,13,23,192,34,16,15,200,37,1*70
$BDGSV,6,4,24,19,15,162,42,20,31,113,47,26,21,309,41,29,59,005,48,1*78
$BDGSV,6,5,24,30,24,065,43,32,16,055,40,35,28,285,41,36,27,185,38,1*72
$BDGSV,6,6,24,38,46,179,43,39,08,193,35,40,64,014,48,45,49,245,49,1*70
$GQGSV,1,1,04,02,,,46,03,,,46,04,,,40,07,,,39,1*6D
$GNGLL,3011.1654762,N,12009.3876905,E,022729.00,A,A*71
$GNGST,022729.00,9.0,,,,2.1,1.9,2.0*6B
$GNZDA,022729.00,21,05,2025,00,00*77
$GNDHV,022729.00,0.04,-0.024,0.031,0.005,0.02,,,,,M*14
$GPTXT,01,01,02,MS=7,18,2625A7EF,33,26,B60C93FF,33,0,00000000*1F
$GPTXT,01,01,01,ANTENNA OPEN*25
$GNRMC,022730.00,A,3011.1654727,N,12009.3876908,E,0.03,,210525,,,A,V*24
$GNVTG,,,,,0.03,N,0.05,K,A*22
$GNGGA,022730.00,3011.1654727,N,12009.3876908,E,1,41,0.5,96.87,M,7.05,M,,*72
$GNGSA,A,3,01,03,06,11,14,17,19,22,30,,,,0.8,0.5,0.7,1*37
$GNGSA,A,3,02,10,11,12,16,24,25,36,,,,,0.8,0.5,0.7,3*3A
$GNGSA,A,3,01,02,03,04,05,06,07,08,09,10,13,16,0.8,0.5,0.7,4*3B
$GNGSA,A,3,19,20,26,29,30,32,35,36,38,39,40,45,0.8,0.5,0.7,4*3E
$GNGSA,A,3,,,,,,,,,,,,,0.8,0.5,0.7,5*3F
$GPGSV,3,1,11,01,27,043,43,02,04,055,31,03,46,066,45,06,37,254,44,1*67
$GPGSV,3,2,11,08,,,28,11,06,241,35,14,77,213,47,17,58,352,46,1*5B
$GPGSV,3,3,11,19,39,314,44,22,71,298,47,30,12,207,35,1*55
$GAGSV,3,1,09,02,21,319,38,10,48,030,44,11,71,350,42,12,25,041,36,7*75
$GAGSV,3,2,09,16,76,171,46,24,49,150,42,25,73,300,45,31,,,29,7*49
$GAGSV,3,3,09,36,42,249,39,7*4C
$BDGSV,6,1,24,01,45,138,46,02,35,232,40,03,52,198,44,04,35,121,41,1*7E
$BDGSV,6,2,24,05,15,252,36,06,18,206,38,07,69,338,47,08,36,182,35,1*75
$BDGSV,6,3,24,09,25,221,37,10,58,319,45,13,24,192,34,16,15,200,37,1*77
$BDGSV,6,4,24,19,15,162,42,20,31,113,47,26,21,309,41,29,59,005,48,1*78
$BDGSV,6,5,24,30,24,065,43,32,16,055,40,35,28,285,41,36,27,185,38,1*72
$BDGSV,6,6,24,38,46,179,43,39,08,193,35,40,64,014,48,45,49,245,49,1*70
$GQGSV,1,1,04,02,,,46,03,,,46,04,,,40,07,,,39,1*6D
$GNGLL,3011.1654727,N,12009.3876908,E,022730.00,A,A*75
$GNGST,022730.00,9.0,,,,2.0,1.9,2.0*62
$GNZDA,022730.00,21,05,2025,00,00*7F
$GNDHV,022730.00,0.02,-0.005,0.018,-0.004,0.01,,,,,M*3D
$GPTXT,01,01,02,MS=7,18,2625A7EF,33,26,B60C93FF,33,0,00000000*1F
$GPTXT,01,01,01,ANTENNA OPEN*25
$GNRMC,022731.00,A,3011.1654738,N,12009.3876793,E,0.02,,210525,,,A,V*26
$GNVTG,,,,,0.02,N,0.03,K,A*25
$GNGGA,022731.00,3011.1654738,N,12009.3876793,E,1,41,0.5,96.87,M,7.05,M,,*71
$GNGSA,A,3,01,03,06,11,14,17,19,22,30,,,,0.8,0.5,0.7,1*37
$GNGSA,A,3,02,10,11,12,16,24,25,36,,,,,0.8,0.5,0.7,3*3A
$GNGSA,A,3,01,02,03,04,05,06,07,08,09,10,13,16,0.8,0.5,0.7,4*3B
$GNGSA,A,3,19,20,26,29,30,32,35,36,38,39,40,45,0.8,0.5,0.7,4*3E
$GNGSA,A,3,,,,,,,,,,,,,0.8,0.5,0.7,5*3F
$GPGSV,3,1,11,01,27,043,43,02,04,055,31,03,46,066,45,06,37,254,44,1*67
$GPGSV,3,2,11,08,,,28,11,06,241,35,14,77,213,47,17,58,352,46,1*5B
$GPGSV,3,3,11,19,39,314,44,22,71,298,47,30,12,207,35,1*55
$GAGSV,3,1,09,02,21,319,38,10,48,030,44,11,71,350,42,12,25,041,36,7*75
$GAGSV,3,2,09,16,76,171,46,24,49,150,42,25,73,300,46,31,,,29,7*4A
$GAGSV,3,3,09,36,42,249,39,7*4C
$BDGSV,6,1,24,01,45,138,46,02,35,232,40,03,52,198,44,04,35,121,41,1*7E
$BDGSV,6,2,24,05,15,252,36,06,18,206,38,07,69,338,47,08,36,182,35,1*75
$BDGSV,6,3,24,09,25,221,37,10,58,319,45,13,24,192,34,16,15,200,37,1*77
$BDGSV,6,4,24,19,15,162,42,20,31,113,47,26,21,309,41,29,59,005,47,1*77
$BDGSV,6,5,24,30,24,065,43,32,16,055,40,35,28,285,41,36,27,185,38,1*72
$BDGSV,6,6,24,38,46,179,43,39,08,193,35,40,64,014,48,45,49,245,49,1*70
$GQGSV,1,1,04,02,,,46,03,,,46,04,,,40,07,,,40,1*63
$GNGLL,3011.1654738,N,12009.3876793,E,022731.00,A,A*76
$GNGST,022731.00,9.0,,,,2.0,1.9,2.0*63
$GNZDA,022731.00,21,05,2025,00,00*7E
$GNDHV,022731.00,0.01,-0.009,0.012,-0.000,0.01,,,,,M*3D
$GPTXT,01,01,02,MS=7,18,2625A7EF,33,26,B60C93FF,33,0,00000000*1F
$GPTXT,01,01,01,ANTENNA OPEN*25
$GNRMC,022732.00,A,3011.1654862,N,12009.3876663,E,0.01,,210525,,,A,V*28
$GNVTG,,,,,0.01,N,0.03,K,A*26
$GNGGA,022732.00,3011.1654862,N,12009.3876663,E,1,41,0.5,96.86,M,7.05,M,,*7D
$GNGSA,A,3,01,03,06,11,14,17,19,22,30,,,,0.8,0.5,0.7,1*37
$GNGSA,A,3,02,10,11,12,16,24,25,36,,,,,0.8,0.5,0.7,3*3A
$GNGSA,A,3,01,02,03,04,05,06,07,08,09,10,13,16,0.8,0.5,0.7,4*3B
$GNGSA,A,3,19,20,26,29,30,32,35,36,38,39,40,45,0.8,0.5,0.7,4*3E
$GNGSA,A,3,,,,,,,,,,,,,0.8,0.5,0.7,5*3F
$GPGSV,3,1,11,01,27,043,43,02,04,055,32,03,46,066,45,06,37,254,44,1*64
$GPGSV,3,2,11,08,,,28,11,06,241,35,14,77,213,47,17,58,352,46,1*5B
$GPGSV,3,3,11,19,39,314,44,22,71,298,47,30,12,207,35,1*55
$GAGSV,3,1,09,02,21,319,38,10,48,030,44,11,71,350,42,12,25,041,36,7*75
$GAGSV,3,2,09,16,76,171,46,24,49,150,42,25,73,300,46,31,,,30,7*42
$GAGSV,3,3,09,36,42,249,39,7*4C
$BDGSV,6,1,24,01,45,138,46,02,35,232,40,03,52,198,44,04,35,121,41,1*7E
$BDGSV,6,2,24,05,15,252,36,06,18,206,38,07,69,338,47,08,36,182,34,1*74
$BDGSV,6,3,24,09,25,221,37,10,58,319,45,13,24,192,34,16,15,200,37,1*77
$BDGSV,6,4,24,19,15,162,42,20,31,113,47,26,21,309,41,29,59,005,47,1*77
$BDGSV,6,5,24,30,24,065,43,32,16,055,40,35,28,285,41,36,27,185,38,1*72
$BDGSV,6,6,24,38,46,179,43,39,08,193,35,40,64,014,48,45,49,245,49,1*70
$GQGSV,1,1,04,02,,,46,03,,,46,04,,,40,07,,,40,1*63
$GNGLL,3011.1654862,N,12009.3876663,E,022732.00,A,A*7B
$GNGST,022732.00,9.0,,,,2.0,1.9,2.0*60
$GNZDA,022732.00,21,05,2025,00,00*7D
$GNDHV,022732.00,0.01,-0.003,0.003,-0.006,0.01,,,,,M*32
$GPTXT,01,01,02,MS=7,18,2625A7EF,33,26,B60C93FF,33,0,00000000*1F
$GPTXT,01,01,01,ANTENNA OPEN*25
$GNRMC,022733.00,A,3011.1655044,N,12009.3876541,E,0.04,,210525,,,A,V*22
$GNVTG,,,,,0.04,N,0.08,K,A*28
$GNGGA,022733.00,3011.1655044,N,12009.3876541,E,1,41,0.5,96.85,M,7.05,M,,*71
$GNGSA,A,3,01,03,06,11,14,17,19,22,30,,,,0.8,0.5,0.7,1*37
$GNGSA,A,3,02,10,11,12,16,24,25,36,,,,,0.8,0.5,0.7,3*3A
$GNGSA,A,3,01,02,03,04,05,06,07,08,09,10,13,16,0.8,0.5,0.7,4*3B
$GNGSA,A,3,19,20,26,29,30,32,35,36,38,39,40,45,0.8,0.5,0.7,4*3E
$GNGSA,A,3,,,,,,,,,,,,,0.8,0.5,0.7,5*3F
$GPGSV,3,1,11,01,27,043,43,02,03,055,32,03,