$GNRMC,022724.00,A,3011.165240,N,12009.387980,E,0.04,,210525,,,A,V*20
$GNVTG,,,,,0.04,N,0.07,K,A*27
$GNGGA,022724.00,3011.165240,N,12009.387980,E,1,33,0.6,105.281,M,0.000,M,,*4A
$GNGSA,A,3,01,03,06,11,14,17,19,22,30,,,,1.0,0.6,0.8,1*32
$GNGSA,A,3,10,11,16,24,25,,,,,,,,1.0,0.6,0.8,3*3B
$GNGSA,A,3,01,02,03,04,05,06,07,09,10,16,20,29,1.0,0.6,0.8,4*3D
$GNGSA,A,3,30,32,36,38,39,40,45,,,,,,1.0,0.6,0.8,4*38
$GNGSA,A,3,,,,,,,,,,,,,1.0,0.6,0.8,5*3A
$GPGSV,3,1,11,01,27,043,40,02,04,055,31,03,46,066,42,06,37,254,41,1*66
$GPGSV,3,2,11,08,,,24,11,06,241,34,14,77,214,45,17,58,352,44,1*51
$GPGSV,3,3,11,19,39,314,42,22,71,299,44,30,12,207,33,1*57
$GAGSV,2,1,06,10,48,030,40,11,71,350,39,16,77,171,42,24,49,150,39,7*75
$GAGSV,2,2,06,25,73,300,42,31,,,19,7*49
$BDGSV,5,1,19,01,45,138,45,02,35,232,39,03,52,198,43,04,35,121,40,1*78
$BDGSV,5,2,19,05,15,252,36,06,18,206,37,07,69,338,46,09,25,221,36,1*7C
$BDGSV,5,3,19,10,58,319,44,16,15,200,37,20,31,113,46,29,59,005,47,1*79
$BDGSV,5,4,19,30,24,065,43,32,16,055,40,36,27,185,38,38,46,179,42,1*78
$BDGSV,5,5,19,39,08,193,34,40,64,014,47,45,49,245,49,1*41
$GQGSV,1,1,04,02,,,43,03,,,44,04,,,38,07,,,37,1*6B
$GNGLL,3011.165240,N,12009.387980,E,022724.00,A,A*76
$GNZDA,022724.00,21,05,2025,00,00*7A
$GPTXT,01,01,01,ANTENNA OPEN*25
$GNRMC,022725.00,A,3011.165234,N,12009.387974,E,0.04,,210525,,,A,V*29
$GNVTG,,,,,0.04,N,0.08,K,A*28
$GNGGA,022725.00,3011.165234,N,12009.387974,E,1,33,0.6,105.268,M,0.000,M,,*44
$GNGSA,A,3,01,03,06,11,14,17,19,22,30,,,,1.0,0.6,0.8,1*32
$GNGSA,A,3,10,11,16,24,25,,,,,,,,1.0,0.6,0.8,3*3B
$GNGSA,A,3,01,02,03,04,05,06,07,09,10,16,20,29,1.0,0.6,0.8,4*3D
$GNGSA,A,3,30,32,36,38,39,40,45,,,,,,1.0,0.6,0.8,4*38
$GNGSA,A,3,,,,,,,,,,,,,1.0,0.6,0.8,5*3A
$GPGSV,3,1,11,01,27,043,40,02,04,055,31,03,46,066,42,06,37,254,41,1*66
$GPGSV,3,2,11,08,,,24,11,06,241,34,14,77,213,45,17,58,352,44,1*56
$GPGSV,3,3,11,19,39,314,42,22,71,299,44,30,12,207,33,1*57
$GAGSV,2,1,06,10,48,030,40,11,71,350,39,16,77,171,42,24,49,150,39,7*75
$GAGSV,2,2,06,25,73,300,42,31,,,19,7*49
$BDGSV,5,1,19,01,45,138,45,02,35,232,39,03,52,198,43,04,35,121,40,1*78
$BDGSV,5,2,19,05,15,252,36,06,18,206,37,07,69,338,46,09,25,221,36,1*7C
$BDGSV,5,3,19,10,58,319,44,16,15,200,37,20,31,113,46,29,59,005,47,1*79
$BDGSV,5,4,19,30,24,065,43,32,16,055,40,36,27,185,38,38,46,179,42,1*78
$BDGSV,5,5,19,39,08,193,35,40,64,014,47,45,49,245,49,1*40
$GQGSV,1,1,04,02,,,43,03,,,44,04,,,38,07,,,37,1*6B
$GNGLL,3011.165234,N,12009.387974,E,022725.00,A,A*7F
$GNZDA,022725.00,21,05,2025,00,00*7B
$GPTXT,01,01,01,ANTENNA OPEN*25
$GNRMC,022726.00,A,3011.165229,N,12009.387973,E,0.02,,210525,,,A,V*27
$GNVTG,,,,,0.02,N,0.04,K,A*22
$GNGGA,022726.00,3011.165229,N,12009.387973,E,1,33,0.6,105.247,M,0.000,M,,*41
$GNGSA,A,3,01,03,06,11,14,17,19,22,30,,,,1.0,0.6,0.8,1*32
$GNGSA,A,3,10,11,16,24,25,,,,,,,,1.0,0.6,0.8,3*3B
$GNGSA,A,3,01,02,03,04,05,06,07,09,10,16,20,29,1.0,0.6,0.8,4*3D
$GNGSA,A,3,30,32,36,38,39,40,45,,,,,,1.0,0.6,0.8,4*38
$GNGSA,A,3,,,,,,,,,,,,,1.0,0.6,0.8,5*3A
$GPGSV,3,1,11,01,27,043,40,02,04,055,31,03,46,066,43,06,37,254,41,1*67
$GPGSV,3,2,11,08,,,24,11,06,241,34,14,77,213,45,17,58,352,44,1*56
$GPGSV,3,3,11,19,39,314,42,22,71,299,44,30,12,207,33,1*57
$GAGSV,2,1,06,10,48,030,40,11,71,350,39,16,77,171,42,24,49,150,39,7*75
$GAGSV,2,2,06,25,73,300,42,31,,,19,7*49
$BDGSV,5,1,19,01,45,138,45,02,35,232,39,03,52,198,43,04,35,121,40,1*78
$BDGSV,5,2,19,05,15,252,36,06,18,206,37,07,69,338,46,09,25,221,36,1*7C
$BDGSV,5,3,19,10,58,319,44,16,15,200,37,20,31,113,46,29,59,005,47,1*79
$BDGSV,5,4,19,30,24,065,43,32,16,055,40,36,27,185,38,38,46,179,42,1*78
$BDGSV,5,5,19,39,08,193,35,40,64,014,47,45,49,245,49,1*40
$GQGSV,1,1,04,02,,,43,03,,,44,04,,,38,07,,,37,1*6B
$GNGLL,3011.165229,N,12009.387973,E,022726.00,A,A*77
$GNZDA,022726.00,21,05,2025,00,00*78
$GPTXT,01,01,01,ANTENNA OPEN*25
$GNRMC,022727.00,A,3011.165228,N,12009.387985,E,0.02,,210525,,,A,V*2E
$GNVTG,,,,,0.02,N,0.04,K,A*22
$GNGGA,022727.00,3011.165228,N,12009.387985,E,1,33,0.6,105.243,M,0.000,M,,*4C
$GNGSA,A,3,01,03,06,11,14,17,19,22,30,,,,1.0,0.6,0.8,1*32
$GNGSA,A,3,10,11,16,24,25,,,,,,,,1.0,0.6,0.8,3*3B
$GNGSA,A,3,01,02,03,04,05,06,07,09,10,16,20,29,1.0,0.6,0.8,4*3D
$GNGSA,A,3,30,32,36,38,39,40,45,,,,,,1.0,0.6,0.8,4*38
$GNGSA,A,3,,,,,,,,,,,,,1.0,0.6,0.8,5*3A
$GPGSV,3,1,11,01,27,043,40,02,04,055,28,03,46,066,43,06,37,254,41,1*6F
$GPGSV,3,2,11,08,,,24,11,06,241,34,14,77,213,45,17,58,352,44,1*56
$GPGSV,3,3,11,19,39,314,42,22,71,299,44,30,12,207,33,1*57
$GAGSV,2,1,06,10,48,030,40,11,71,350,39,16,77,171,42,24,49,150,39,7*75
$GAGSV,2,2,06,25,73,300,42,31,,,22,7*41
$BDGSV,5,1,19,01,45,138,45,02,35,232,39,03,52,198,43,04,35,121,40,1*78
$BDGSV,5,2,19,05,15,252,36,06,18,206,37,07,69,338,46,09,25,221,36,1*7C
$BDGSV,5,3,19,10,58,319,44,16,15,200,37,20,31,113,46,29,59,005,47,1*79
$BDGSV,5,4,19,30,24,065,43,32,16,055,40,36,27,185,38,38,46,179,42,1*78
$BDGSV,5,5,19,39,08,193,35,40,64,014,47,45,49,245,49,1*40
$GQGSV,1,1,04,02,,,43,03,,,44,04,,,38,07,,,37,1*6B
$GNGLL,3011.165228,N,12009.387985,E,022727.00,A,A*7E
$GNZDA,022727.00,21,05,2025,00,00*79
$GPTXT,01,01,01,ANTENNA OPEN*25
$GNRMC,022728.00,A,3011.165215,N,12009.387993,E,0.05,,210525,,,A,V*2F
$GNVTG,,,,,0.05,N,0.09,K,A*28
$GNGGA,022728.00,3011.165215,N,12009.387993,E,1,33,0.6,105.247,M,0.000,M,,*4E
$GNGSA,A,3,01,03,06,11,14,17,19,22,30,,,,1.0,0.6,0.8,1*32
$GNGSA,A,3,10,11,16,24,25,,,,,,,,1.0,0.6,0.8,3*3B
$GNGSA,A,3,01,02,03,04,05,06,07,09,10,16,20,29,1.0,0.6,0.8,4*3D
$GNGSA,A,3,30,32,36,38,39,40,45,,,,,,1.0,0.6,0.8,4*38
$GNGSA,A,3,,,,,,,,,,,,,1.0,0.6,0.8,5*3A
$GPGSV,3,1,11,01,27,043,40,02,04,055,28,03,46,066,43,06,37,254,41,1*6F
$GPGSV,3,2,11,08,,,24,11,06,241,34,14,77,213,45,17,58,352,44,1*56
$GPGSV,3,3,11,19,39,314,42,22,71,299,44,30,12,207,33,1*57
$GAGSV,2,1,06,10,48,030,40,11,71,350,39,16,76,171,42,24,49,150,39,7*74
$GAGSV,2,2,06,25,73,300,42,31,,,27,7*44
$BDGSV,5,1,19,01,45,138,45,02,35,232,39,03,52,198,43,04,35,121,40,1*78
$BDGSV,5,2,19,05,15,252,36,06,18,206,37,07,69,338,46,09,25,221,36,1*7C
$BDGSV,5,3,19,10,58,319,44,16,15,200,37,20,31,113,46,29,59,005,47,1*79
$BDGSV,5,4,19,30,24,065,43,32,16,055,40,36,27,185,38,38,46,179,42,1*78
$BDGSV,5,5,19,39,08,193,35,40,64,014,47,45,49,245,49,1*40
$GQGSV,1,1,04,02,,,43,03,,,44,04,,,38,07,,,37,1*6B
$GNGLL,3011.165215,N,12009.387993,E,022728.00,A,A*78
$GNZDA,022728.00,21,05,2025,00,00*76
$GPTXT,01,01,01,ANTENNA OPEN*25
$GNRMC,022729.00,A,3011.165209,N,12009.387995,E,0.03,,210525,,,A,V*23
$GNVTG,,,,,0.03,N,0.06,K,A*21
$GNGGA,022729.00,3011.165209,N,12009.387995,E,1,33,0.6,105.244,M,0.000,M,,*47
$GNGSA,A,3,01,03,06,11,14,17,19,22,30,,,,1.0,0.6,0.8,1*32
$GNGSA,A,3,10,11,16,24,25,,,,,,,,1.0,0.6,0.8,3*3B
$GNGSA,A,3,01,02,03,04,05,06,07,09,10,16,20,29,1.0,0.6,0.8,4*3D
$GNGSA,A,3,30,32,36,38,39,40,45,,,,,,1.0,0.6,0.8,4*38
$GNGSA,A,3,,,,,,,,,,,,,1.0,0.6,0.8,5*3A
$GPGSV,3,1,11,01,27,043,41,02,04,055,28,03,46,066,43,06,37,254,41,1*6E
$GPGSV,3,2,11,08,,,24,11,06,241,34,14,77,213,45,17,58,352,44,1*56
$GPGSV,3,3,11,19,39,314,42,22,71,299,44,30,12,207,32,1*56
$GAGSV,2,1,06,10,48,030,40,11,71,350,39,16,76,171,42,24,49,150,39,7*74
$GAGSV,2,2,06,25,73,300,42,31,,,27,7*44
$BDGSV,5,1,19,01,45,138,45,02,35,232,39,03,52,198,43,04,35,121,40,1*78
$BDGSV,5,2,19,05,15,252,36,06,18,206,37,07,69,338,46,09,25,221,36,1*7C
$BDGSV,5,3,19,10,58,319,44,16,15,200,37,20,31,113,46,29,59,005,47,1*79
$BDGSV,5,4,19,30,24,065,43,32,16,055,40,36,27,185,38,38,46,179,42,1*78
$BDGSV,5,5,19,39,08,193,35,40,64,014,47,45,49,245,49,1*40
$GQGSV,1,1,04,02,,,43,03,,,44,04,,,38,07,,,37,1*6B
$GNGLL,3011.165209,N,12009.387995,E,022729.00,A,A*72
$GNZDA,022729.00,21,05,2025,00,00*77
$GPTXT,01,01,01,ANTENNA OPEN*25
$GNRMC,022730.00,A,3011.165213,N,12009.387989,E,0.04,,210525,,,A,V*2A
$GNVTG,,,,,0.04,N,0.08,K,A*28
$GNGGA,022730.00,3011.165213,N,12009.387989,E,1,33,0.6,105.245,M,0.000,M,,*48
$GNGSA,A,3,01,03,06,11,14,17,19,22,30,,,,1.0,0.6,0.8,1*32
$GNGSA,A,3,10,11,16,24,25,,,,,,,,1.0,0.6,0.8,3*3B
$GNGSA,A,3,01,02,03,04,05,06,07,09,10,16,20,29,1.0,0.6,0.8,4*3D
$GNGSA,A,3,30,32,36,38,39,40,45,,,,,,1.0,0.6,0.8,4*38
$GNGSA,A,3,,,,,,,,,,,,,1.0,0.6,0.8,5*3A
$GPGSV,3,1,11,01,27,043,41,02,04,055,28,03,46,066,43,06,37,2